City_ID,City,Lat,Lng,Max Temp,Humidity,Cloudiness,Wind Speed,Country,Date
0,wailua homesteads,22.0669,-159.378,18.44,82,0,3.09,US,1707835703
1,anan,33.9167,134.65,6.88,82,0,1.7,JP,1707835703
2,nar'yan-mar,67.6713,53.087,-29.38,98,71,3.58,RU,1707835704
3,malango,-2.9627,119.9001,20.78,98,100,0.66,ID,1707835704
4,karratha,-20.7377,116.8463,27.13,79,5,4.26,AU,1707835705
5,kapa'a,22.0752,-159.319,19.18,82,0,3.09,US,1707835705
6,coari,-4.085,-63.1414,28.05,81,91,2.86,BR,1707835706
7,longyearbyen,78.2186,15.6401,-6.09,63,0,6.17,SJ,1707835706
8,albany,42.6001,-73.9662,1.05,74,100,1.34,US,1707835677
9,cockburn town,21.4612,-71.1419,25.98,78,40,3.09,TC,1707835707
10,carutapera,-1.195,-46.02,25.5,91,100,1.94,BR,1707835708
11,thompson,55.7435,-97.8558,-8.91,92,100,2.06,CA,1707835709
12,avarua,-21.2078,-159.775,24.03,88,81,2.06,CK,1707835709
13,campbellton,48.0075,-66.6727,-6.75,79,51,5.17,CA,1707835710
14,cosala,24.4125,-106.6908,15.17,26,84,1.08,MX,1707835710
15,bethel,41.3712,-73.414,0.3,86,100,3.6,US,1707835494
16,el burgo de osma,41.5862,-3.0652,13.19,78,100,5.54,ES,1707835711
17,edinburgh of the seven seas,-37.0676,-12.3116,18.15,71,66,4.73,SH,1707835712
18,papatowai,-46.5619,169.4708,14.02,79,62,1.51,NZ,1707835712
19,sur,22.5667,59.5289,24.26,70,26,3.48,OM,1707835713
20,isafjordur,66.0755,-23.124,-0.98,69,40,3.09,IS,1707835713
21,grytviken,-54.2811,-36.5092,9.12,91,100,5.3,GS,1707835714
22,adamstown,-25.066,-130.1015,24.94,88,100,7.11,PN,1707835714
23,port-aux-francais,-49.35,70.2167,8.35,93,93,8.16,TF,1707835715
24,lebu,-37.6167,-73.65,15.3,75,4,7.94,CL,1707835715
25,nuku'alofa,-21.1333,-175.2,27.19,83,100,7.2,TO,1707835716
26,haiku-pauwela,20.9219,-156.3051,20.58,87,75,0.89,US,1707835716
27,west island,-12.1568,96.8225,28.99,74,40,5.66,CC,1707835717
28,puerto baquerizo moreno,-0.9,-89.6,26.55,94,40,3.6,EC,1707835717
29,port mathurin,-19.6833,63.4167,27.49,82,36,9.13,MU,1707835718
30,puerto ayora,-0.7393,-90.3518,27.53,95,74,3.58,EC,1707835718
31,wainwright,52.839,-110.8572,-7.82,93,94,5.63,CA,1707835718
32,waitangi,-43.9535,-176.5597,13.79,83,8,3.73,NZ,1707835719
33,piacabucu,-10.4056,-36.4344,30.33,62,100,4.95,BR,1707835719
34,tura,25.5198,90.2201,16.72,27,0,2.41,IN,1707835720
35,lutsk,50.7593,25.3424,7.34,89,100,2.68,UA,1707835720
36,iskateley,67.6803,53.1512,-29.43,98,69,3.58,RU,1707835721
37,whitehorse,60.7161,-135.0538,-6.57,79,100,2.06,CA,1707835721
38,selogiri,-7.7833,110.8667,25.63,90,62,1.24,ID,1707835722
39,selfoss,63.9331,-20.9971,-3.1,85,6,3.47,IS,1707835722
40,garissa,-0.4536,39.6401,36.56,26,45,5.72,KE,1707835723
41,uturoa,-16.7333,-151.4333,27.41,84,100,11.36,PF,1707835723
42,suzun,53.7841,82.3116,-10.71,90,100,3.88,RU,1707835724
43,stanley,54.868,-1.6985,6.82,86,75,0.51,GB,1707835724
44,kone,-21.0595,164.8658,24.27,90,0,2.07,NC,1707835725
45,hawaiian paradise park,19.5933,-154.9731,17.73,72,100,2.57,US,1707835725
46,kalmunai,7.4167,81.8167,25.57,88,23,4.68,LK,1707835725
47,punta arenas,-53.15,-70.9167,16.06,55,75,12.35,CL,1707835726
48,vilyuchinsk,52.9306,158.4028,-16.71,81,77,3.04,RU,1707835726
49,funafuti,-8.5243,179.1942,29.0,89,40,4.12,TV,1707835727
50,brevard,28.292,-80.7492,20.03,78,0,7.2,US,1707835706
51,belmonte,-15.8631,-38.8828,29.2,65,25,4.2,BR,1707835728
52,nemuro,43.3236,145.575,0.49,86,1,6.03,JP,1707835729
53,ronne,55.1009,14.7066,3.95,93,100,3.09,DK,1707835729
54,acajutla,13.5928,-89.8275,29.7,53,7,1.15,SV,1707835730
55,codrington,-38.2667,141.9667,15.54,48,71,8.83,AU,1707835730
56,tilcara,-23.5776,-65.3509,8.97,96,100,3.04,AR,1707835731
57,lamu,-2.2717,40.902,28.14,72,81,5.8,KE,1707835731
58,corner brook,48.9667,-57.9484,-1.91,90,99,3.91,CA,1707835507
59,ambovombe,-25.1667,46.0833,25.61,78,100,7.13,MG,1707835732
60,bilibino,68.0546,166.4372,-38.41,99,95,0.78,RU,1707835733
61,gomez farias,23.05,-99.15,19.3,49,74,1.28,MX,1707835733
62,capbreton,43.6422,-1.4282,20.21,62,66,0.35,FR,1707835734
63,olonkinbyen,70.9221,-8.7187,-1.23,99,100,3.7,SJ,1707835734
64,preobrazheniye,42.9019,133.9064,0.86,79,1,4.65,RU,1707835735
65,sitka,57.0531,-135.33,0.94,86,0,0.0,US,1707835735
66,betio village,1.358,172.9211,28.02,82,100,6.35,KI,1707835736
67,bogale,16.2833,95.4,23.33,52,19,2.62,MM,1707835736
68,lihue,21.9789,-159.3672,18.77,88,0,3.09,US,1707835737
69,saipan,15.1355,145.701,23.39,94,75,6.17,MP,1707835737
70,ribeira grande,38.5167,-28.7,15.22,88,75,8.75,PT,1707835738
71,blackmans bay,-43.0167,147.3167,13.07,79,98,1.34,AU,1707835738
72,cheongsong gun,36.4335,129.057,3.68,92,0,1.6,KR,1707835739
73,college,64.8569,-147.8028,3.18,72,75,4.12,US,1707835739
74,ilulissat,69.2167,-51.1,-20.99,54,40,2.57,GL,1707835740
75,hermanus,-34.4187,19.2345,23.22,73,29,4.82,ZA,1707835740
76,yambio,4.5721,28.3955,31.73,36,92,2.6,SS,1707835741
77,kimbe,-5.5502,150.1429,24.89,94,86,0.72,PG,1707835741
78,greymouth,-42.4667,171.2,10.62,93,20,1.91,NZ,1707835661
79,minas de marcona,-15.2119,-75.1103,22.88,66,63,5.08,PE,1707835742
80,emerald,-23.5333,148.1667,23.52,92,100,4.84,AU,1707835742
81,kingston,17.997,-76.7936,28.98,80,20,1.54,JM,1707835567
82,fale old settlement,-9.3852,-171.2468,28.1,81,100,13.15,TK,1707835743
83,akjoujt,19.6969,-14.4164,36.87,11,2,4.37,MR,1707835744
84,olyokminsk,60.3736,120.4264,-25.22,99,100,1.37,RU,1707835645
85,touros,-5.1989,-35.4608,30.7,64,50,5.28,BR,1707835745
86,bredasdorp,-34.5322,20.0403,25.35,47,17,7.48,ZA,1707835746
87,yasuj,30.6682,51.588,13.75,21,0,4.12,IR,1707835746
88,barcelos,41.5388,-8.6151,18.29,84,97,3.52,PT,1707835504
89,concordia,-31.393,-58.0209,25.99,48,87,1.79,AR,1707835747
90,ebon,4.582,168.6964,27.82,77,82,10.29,MH,1707835748
91,yellowknife,62.456,-114.3525,-15.71,85,75,2.57,CA,1707835687
92,faya-largeau,17.9257,19.1043,33.29,5,0,4.84,TD,1707835749
93,ancud,-41.8697,-73.8203,18.52,44,12,1.05,CL,1707835750
94,wuwei,37.9281,102.6414,-1.7,54,100,0.55,CN,1707835750
95,quiberon,47.4841,-3.1196,13.44,93,100,3.13,FR,1707835751
96,port lincoln,-34.7333,135.8667,16.82,53,81,5.92,AU,1707835751
97,st. john's,47.5649,-52.7093,0.44,84,100,6.69,CA,1707835661
98,catabola,-12.15,17.2833,20.63,84,47,2.93,AO,1707835752
99,afaahiti,-17.75,-149.2833,25.93,88,100,9.7,PF,1707835753
100,iqaluit,63.7506,-68.5145,-21.15,71,100,1.54,CA,1707835753
101,nova vicosa,-17.8919,-39.3719,29.66,62,49,3.31,BR,1707835754
102,muroto-misakicho,33.2833,134.15,15.04,70,3,5.1,JP,1707835754
103,argo,37.6333,22.7333,15.44,51,23,1.11,GR,1707835755
104,callaway,30.153,-85.5699,11.08,70,40,6.17,US,1707835528
105,port alfred,-33.5906,26.891,22.32,81,100,3.13,ZA,1707835756
106,morrope,-6.5417,-80.0111,27.06,73,100,4.08,PE,1707835757
107,ust-nera,64.5667,143.2,-40.07,95,33,1.02,RU,1707835757
108,anadyr,64.75,177.4833,-29.72,74,20,4.0,RU,1707835758
109,weno,7.4515,151.8468,27.15,72,28,10.5,FM,1707835758
110,daru,-9.0763,143.2092,25.06,93,100,1.4,PG,1707835759
111,veydelevka,50.1521,38.4492,7.1,81,100,2.06,RU,1707835759
112,shalkar,47.8288,59.6258,-2.61,90,67,4.22,KZ,1707835760
113,saharanpur,29.9667,77.55,15.75,31,59,0.88,IN,1707835760
114,eastham,41.8301,-69.9739,2.22,84,100,7.72,US,1707835760
115,erenhot,43.6475,111.9767,-9.05,86,90,4.09,CN,1707835761
116,hamilton,39.1834,-84.5333,4.77,66,0,3.09,US,1707835572
117,al bayda',32.7627,21.7551,10.83,69,21,7.38,LY,1707835762
118,ta`u,-14.2336,-169.5144,27.29,85,100,7.8,AS,1707835762
119,moldova noua,44.7375,21.6669,8.9,87,100,6.83,RO,1707835596
120,verkhnevilyuysk,63.4453,120.3167,-33.71,100,100,1.37,RU,1707835763
121,puerto natales,-51.7236,-72.4875,20.25,49,100,11.32,CL,1707835764
122,georgetown,5.4112,100.3354,29.97,61,20,3.09,MY,1707835511
123,sibolga,1.7427,98.7792,26.25,82,3,1.75,ID,1707835765
124,jamestown,42.097,-79.2353,0.57,86,40,3.09,US,1707835639
125,atkarsk,51.8718,45.0078,0.81,100,100,3.43,RU,1707835766
126,port macquarie,-31.4333,152.9167,19.38,75,0,5.92,AU,1707835515
127,tiksi,71.6872,128.8694,-29.61,100,100,1.96,RU,1707835767
128,hithadhoo,-0.6,73.0833,27.5,78,100,7.14,MV,1707835768
129,broome,42.2506,-75.833,0.95,79,100,5.14,US,1707835768
130,crane,31.3974,-102.3501,8.15,38,0,4.4,US,1707835768
131,ridder,50.355,83.5133,-16.73,81,71,3.29,KZ,1707835769
132,tolanaro,-25.0319,46.9987,25.04,94,75,9.26,MG,1707835769
133,maroantsetra,-15.4333,49.7333,25.94,98,100,1.06,MG,1707835770
134,vadso,70.0744,29.7487,-10.91,85,75,5.14,NO,1707835770
135,poronaysk,49.2167,143.1167,-9.1,96,100,2.86,RU,1707835771
136,badger,64.8,-147.5333,3.14,78,20,4.12,US,1707835771
137,port elizabeth,-33.918,25.5701,23.16,78,0,11.32,ZA,1707835772
138,oxapampa,-10.5775,-75.4017,21.15,78,98,1.94,PE,1707835773
139,ust'-kulom,61.6864,53.6902,-21.93,95,98,3.39,RU,1707835773
140,nicoya,10.1483,-85.452,31.0,47,99,6.18,CR,1707835774
141,twon-brass,4.3151,6.2418,29.78,77,27,7.8,NG,1707835774
142,remire-montjoly,4.9167,-52.2667,30.02,74,75,5.66,GF,1707835775
143,gunnison,38.7,-107.0673,-11.72,90,33,0.87,US,1707835775
144,polovinnoye,54.7914,65.9864,-5.8,95,100,6.45,RU,1707835776
145,yeppoon,-23.1333,150.7333,23.88,95,93,1.53,AU,1707835777
146,dunedin,-45.8742,170.5036,16.0,76,11,1.34,NZ,1707835726
147,rongelap,11.1635,166.8941,26.16,67,100,8.24,MH,1707835778
148,new norfolk,-42.7826,147.0587,13.72,84,97,4.4,AU,1707835778
149,ulaangom,49.9811,92.0667,-21.87,77,67,2.53,MN,1707835778
150,benjamin constant,-4.3831,-70.0311,27.07,88,40,2.06,BR,1707835779
151,sao jose da coroa grande,-8.8978,-35.1478,32.51,49,86,4.28,BR,1707835779
152,naze,28.3667,129.4833,17.51,65,100,5.56,JP,1707835780
153,jatai,-17.8814,-51.7144,30.39,49,38,3.34,BR,1707835781
154,plastun,44.7561,136.2939,2.3,76,3,3.71,RU,1707835781
155,bhimbar,32.9757,74.0793,15.6,30,0,0.99,PK,1707835782
156,farasan,16.7022,42.1183,26.74,81,52,2.74,SA,1707835782
157,nova sintra,14.8667,-24.7167,20.12,76,1,5.45,CV,1707835783
158,chibougamau,49.9168,-74.3659,-14.21,85,100,2.57,CA,1707835783
159,hengchun,22.0042,120.7439,21.25,64,1,6.25,TW,1707835784
160,turan,16.0678,108.2208,22.99,83,40,0.51,VN,1707835784
161,gaspe,48.8334,-64.4819,-3.88,58,20,4.63,CA,1707835652
162,guacara,10.2261,-67.877,28.95,48,78,2.12,VE,1707835785
163,sandnessjoen,66.0217,12.6316,-1.94,64,75,9.26,NO,1707835785
164,keflavik,64.0049,-22.5624,0.95,74,20,7.72,IS,1707835786
165,togur,58.3631,82.8265,-17.11,95,100,3.14,RU,1707835786
166,al mawsil al jadidah,36.3346,43.0978,16.65,51,100,3.28,IQ,1707835787
167,axim,4.8699,-2.2405,31.16,68,63,5.06,GH,1707835787
168,chegdomyn,51.1167,133.0167,-8.32,98,100,1.2,RU,1707835788
169,spring creek,40.7266,-115.5859,-3.72,66,98,1.32,US,1707835789
170,kruisfontein,-34.0033,24.7314,23.63,66,95,10.13,ZA,1707835789
171,thief river falls,48.1191,-96.1812,-3.47,80,100,3.6,US,1707835790
172,madison,34.7334,-86.5667,4.4,89,40,4.12,US,1707835535
173,lakatoro,-16.0999,167.4164,26.81,85,2,1.22,VU,1707835791
174,ketchikan,55.3422,-131.6461,2.26,80,0,5.66,US,1707835791
175,kudahuvadhoo,2.6708,72.8944,27.7,85,88,8.89,MV,1707835792
176,kavieng,-2.5744,150.7967,28.01,79,96,4.03,PG,1707835792
177,norilsk,69.3535,88.2027,-33.44,85,13,1.53,RU,1707835793
178,general acha,-37.377,-64.6043,21.62,26,0,4.61,AR,1707835793
179,jiangzi,28.95,89.6333,-4.93,52,76,3.55,CN,1707835794
180,saint-joseph,-21.3667,55.6167,27.21,88,97,4.3,RE,1707835794
181,ishigaki,24.3448,124.1572,20.07,83,20,2.06,JP,1707835795
182,lethem,3.3803,-59.7968,30.87,55,98,5.5,GY,1707835795
183,vila velha,-20.3297,-40.2925,31.64,72,20,3.6,BR,1707835796
184,margaret river,-33.95,115.0667,15.87,64,73,6.1,AU,1707835511
185,cururupu,-1.8283,-44.8683,25.88,88,100,1.82,BR,1707835797
186,geraldton,-28.7667,114.6,22.23,83,0,5.66,AU,1707835797
187,carnarvon,-24.8667,113.6333,26.39,66,0,10.45,AU,1707835798
188,nova xavantina,-14.6667,-52.35,31.7,56,23,1.73,BR,1707835798
189,east london,-33.0153,27.9116,23.52,73,75,6.69,ZA,1707835799
190,petropavlovsk-kamchatsky,53.0452,158.6483,-17.53,81,0,3.13,RU,1707835799
191,kurkino,53.4257,38.6582,-2.13,96,100,5.07,RU,1707835799
192,severo-yeniseyskiy,60.3725,93.0408,-21.9,96,100,4.02,RU,1707835800
193,serdar,38.9764,56.2757,17.58,29,25,3.85,TM,1707835801
194,fortuna,40.5982,-124.1573,7.19,97,75,0.0,US,1707835801
195,rikaze,29.25,88.8833,0.65,28,74,3.32,CN,1707835802
196,guerrero negro,27.9769,-114.0611,13.64,51,0,2.14,MX,1707835579
197,uthal,25.8072,66.6219,22.29,52,70,1.75,PK,1707835803
198,yuanping,38.7153,112.7575,4.39,47,5,0.84,CN,1707835803
199,santa ana de yacuma,-13.75,-65.4333,23.97,100,100,3.09,BO,1707835804
200,qarqin,37.4185,66.0436,16.0,26,0,5.96,AF,1707835804
201,isangel,-19.55,169.2667,26.67,90,44,6.94,VU,1707835805
202,nampula,-15.1165,39.2666,22.97,94,100,5.36,MZ,1707835805
203,hasaki,35.7333,140.8333,9.22,56,0,7.78,JP,1707835806
204,glubokoye,50.1456,82.3114,-15.14,66,88,4.0,KZ,1707835806
205,fort st. john,56.2499,-120.8529,-10.06,73,20,3.6,CA,1707835807
206,kendari,-3.945,122.4989,24.89,91,100,0.67,ID,1707835807
207,zilair,52.2332,57.4392,-0.01,98,100,6.1,RU,1707835808
208,viedma,-40.8135,-62.9967,23.73,18,2,4.97,AR,1707835808
209,newman,37.3138,-121.0208,5.72,92,100,1.05,US,1707835809
210,prince albert,53.2001,-105.7677,-8.03,79,75,4.63,CA,1707835809
211,batticaloa,7.7102,81.6924,26.0,85,36,5.64,LK,1707835810
212,morant bay,17.8815,-76.4093,28.79,85,47,5.04,JM,1707835810
213,ushuaia,-54.8,-68.3,14.81,44,0,3.6,AR,1707835755
214,old town,50.087,14.4202,9.7,61,40,5.14,CZ,1707835811
215,kargil,34.5667,76.1,-16.97,77,14,2.05,IN,1707835812
216,saint-louis du nord,19.9333,-72.7167,25.01,82,0,2.85,HT,1707835812
217,arpacay,40.8487,43.3291,5.58,75,100,0.07,TR,1707835813
218,kipushi,-11.7667,27.2333,24.57,73,100,1.43,CD,1707835813
219,tal'menka,53.8183,83.5677,-12.01,91,100,4.63,RU,1707835814
220,whangarei,-35.7317,174.3239,14.58,96,19,0.18,NZ,1707835588
221,koknese,56.65,25.4333,1.6,98,100,3.32,LV,1707835815
222,morshansk,53.4435,41.8107,-1.99,93,100,4.86,RU,1707835816
223,soure,-0.7167,-48.5233,25.56,90,100,5.35,BR,1707835816
224,caririacu,-7.0422,-39.2836,27.05,65,40,4.12,BR,1707835817
225,vilyuysk,63.7553,121.6247,-31.67,98,98,1.34,RU,1707835817
226,chonchi,-42.6128,-73.8092,22.13,31,81,1.92,CL,1707835598
227,whakatane,-37.9585,176.9854,18.06,96,37,4.68,NZ,1707835818
228,talnakh,69.4865,88.3972,-33.89,87,15,1.66,RU,1707835819
229,llanes,43.4198,-4.7549,15.33,63,12,2.12,ES,1707835820
230,tidjikja,18.5564,-11.4271,34.82,6,0,4.24,MR,1707835821
231,vorgashor,67.5833,63.95,-33.02,96,10,2.47,RU,1707835821
232,kaa-khem,51.6833,94.7333,-22.0,85,100,1.43,RU,1707835822
233,laguna,38.421,-121.4238,8.38,91,0,0.0,US,1707835823
234,lompoc,34.6391,-120.4579,11.55,89,100,3.09,US,1707835824
235,general conesa,-40.1,-64.4333,24.92,16,0,6.25,AR,1707835824
236,rogozno,52.7523,16.9905,7.85,70,97,4.91,PL,1707835825
237,shadrinsk,56.0852,63.6335,-5.43,93,100,6.42,RU,1707835826
238,montgomery,39.1501,-77.1997,1.87,95,100,3.09,US,1707835826
239,mount gambier,-37.8333,140.7667,14.21,54,91,4.15,AU,1707835827
240,vernon,50.2581,-119.2691,-1.5,96,27,0.51,CA,1707835828
241,kangding,30.0513,101.9603,7.45,64,100,2.64,CN,1707835828
242,vicksburg,32.3526,-90.8779,6.85,81,0,0.0,US,1707835770
243,sao martinho,39.5144,-9.1311,20.16,96,100,3.58,PT,1707835542
244,mangrol,21.1167,70.1167,23.75,47,100,5.05,IN,1707835830
245,invercargill,-46.4,168.35,10.33,93,2,1.63,NZ,1707835664
246,aswan,24.0934,32.907,28.61,21,0,5.66,EG,1707835831
247,sisimiut,66.9395,-53.6735,-19.3,76,0,2.82,GL,1707835832
248,ubari,26.5921,12.7805,25.09,26,0,10.14,LY,1707835833
249,timbuktu,16.7735,-3.0074,36.28,4,100,3.48,ML,1707835833
250,coahuayana de hidalgo,18.7,-103.6583,24.0,77,85,0.85,MX,1707835834
251,kerikeri,-35.2268,173.9474,15.51,88,14,0.54,NZ,1707835835
252,sumbe,-11.2061,13.8437,29.33,73,23,4.27,AO,1707835836
253,brookings,44.3114,-96.7984,-3.12,99,100,2.3,US,1707835800
254,floresta,-8.6011,-38.5686,32.26,43,94,6.29,BR,1707835837
255,prince rupert,54.3161,-130.3201,2.83,100,100,3.09,CA,1707835837
256,la pesa,7.4954,-72.3818,15.45,51,61,2.26,VE,1707835843
257,nedroma,35.0136,-1.748,25.64,52,12,2.61,DZ,1707835844
258,igarka,67.4667,86.5833,-37.67,95,18,1.66,RU,1707835844
259,asaita,11.5636,41.4394,35.26,28,71,5.13,ET,1707835845
260,huarmey,-10.0681,-78.1522,24.34,82,67,4.4,PE,1707835845
261,antsiranana,-12.2787,49.2917,30.42,70,75,5.14,MG,1707835846
262,shingu,33.7333,135.9833,10.71,92,72,1.8,JP,1707835846
263,north tamworth,-31.0778,150.9261,23.06,56,0,2.57,AU,1707835847
264,kovdor,67.5662,30.4758,-24.34,100,100,1.94,RU,1707835847
265,tazovsky,67.4667,78.7,-39.6,100,37,1.14,RU,1707835847
266,utrik,11.2278,169.8474,25.84,74,100,6.95,MH,1707835848
267,betare oya,5.6,14.0833,38.88,9,79,2.42,CM,1707835848
268,roma,43.2128,-75.4557,2.2,64,100,2.57,US,1707835849
269,richards bay,-28.783,32.0377,27.39,55,0,6.19,ZA,1707835849
270,ake-eze,5.9168,7.6762,40.16,18,51,2.27,NG,1707835850
271,sao raimundo nonato,-9.0153,-42.6994,27.84,66,97,3.22,BR,1707835850
272,linxi,39.7,118.4333,7.61,53,100,1.25,CN,1707835851
273,kotel'nikovo,47.6317,43.1461,6.61,89,100,2.58,RU,1707835851
274,udachny,66.4167,112.4,-30.13,97,100,3.78,RU,1707835852
275,adam,22.3756,57.5233,26.15,22,0,3.79,OM,1707835852
276,hami,42.8,93.45,-3.14,32,0,3.69,CN,1707835853
277,qaqortoq,60.7167,-46.0333,0.02,98,100,5.02,GL,1707835853
278,constantia,44.1833,28.65,12.61,63,100,4.55,RO,1707835854
279,island harbour,50.724,-1.2758,10.82,94,100,4.47,GB,1707835855
280,phang nga,8.4509,98.5298,29.02,73,96,1.82,TH,1707835855
281,klyuchi,52.2667,79.1667,-9.39,82,100,5.97,RU,1707835856
282,oranjemund,-28.55,16.4333,21.14,74,82,9.35,NA,1707835856
283,toormina,-30.3526,153.0903,22.94,73,0,4.63,AU,1707835857
284,dalbandin,28.8947,64.4101,19.61,22,0,3.04,PK,1707835858
285,qamdo,31.1667,97.2333,-5.75,34,61,2.57,CN,1707835858
286,kutulik,53.3508,102.7839,-18.58,94,100,1.71,RU,1707835859
287,smara,26.7384,-11.6719,33.78,16,82,8.36,EH,1707835859
288,kunshan,31.3776,120.9543,14.94,74,94,2.91,CN,1707835860
289,odienne,9.51,-7.5692,39.65,9,18,2.62,CI,1707835860
290,la ronge,55.1001,-105.2842,-3.88,80,100,2.57,CA,1707835861
291,asilah,35.465,-6.0348,20.98,82,99,4.99,MA,1707835861
292,salaga,8.5508,-0.5188,41.02,16,5,0.78,GH,1707835862
293,polyarnyy,69.1989,33.4478,-17.51,96,29,6.3,RU,1707835862
294,yuzhno-kurilsk,44.0306,145.8556,0.21,87,1,2.78,RU,1707835863
295,susanville,40.4163,-120.653,-1.09,93,0,1.54,US,1707835863
296,zalingei,12.9096,23.4741,34.44,8,2,4.13,SD,1707835864
297,kopong,-24.4833,25.8833,34.13,33,40,4.32,BW,1707835864
298,ceelbuur,4.685,46.6176,34.41,27,23,4.7,SO,1707835864
299,mitu,1.1983,-70.1733,32.49,50,87,1.4,CO,1707835865
300,bodo,67.28,14.405,-1.98,46,100,14.4,NO,1707835865
301,broken hill,-31.95,141.4333,22.06,48,70,10.63,AU,1707835588
302,kimberley,-28.7323,24.7623,38.83,13,75,3.09,ZA,1707835866
303,mirny,62.5353,113.9611,-35.85,98,71,2.33,RU,1707835867
304,naqadeh,36.9553,45.388,10.18,47,100,1.32,IR,1707835576
305,aasiaat,68.7098,-52.8699,-29.63,97,100,3.9,GL,1707835868
306,pasuquin,18.3328,120.6177,23.97,69,20,1.54,PH,1707835868
307,solnechnyy,50.7214,136.6319,-13.87,91,100,3.43,RU,1707835869
308,dudinka,69.4058,86.1778,-37.4,99,11,1.79,RU,1707835869
309,usinsk,65.9939,57.5281,-29.4,98,6,1.79,RU,1707835870
310,ponta pora,-22.5361,-55.7256,29.95,54,20,10.29,BR,1707835870
311,trevelin,-43.0858,-71.4639,16.71,30,82,0.38,AR,1707835871
312,eraan,9.0629,117.7016,25.2,87,19,2.6,PH,1707835871
313,nieuw amsterdam,5.8833,-55.0833,31.01,62,40,4.12,SR,1707835872
314,kupang,-10.1667,123.5833,27.32,100,100,1.54,ID,1707835872
315,kalianget,-7.05,113.9333,27.19,82,42,1.38,ID,1707835873
316,aktau,43.65,51.2,12.32,49,100,5.13,KZ,1707835873
317,hadibu,12.65,54.0333,25.29,77,65,6.39,YE,1707835874
318,san antonio de pale,-1.4014,5.6325,29.51,72,95,2.42,GQ,1707835874
319,lorengau,-2.0226,147.2712,27.24,82,95,4.32,PG,1707835875
320,queenstown,-31.8976,26.8753,34.52,22,84,4.61,ZA,1707835875
321,markala,13.7021,-6.0659,38.75,4,72,4.36,ML,1707835876
322,nikol'sk,53.7189,46.0712,-5.35,95,100,4.13,RU,1707835876
323,happy valley-goose bay,53.3168,-60.3315,-5.83,86,75,3.6,CA,1707835823
324,great torrington,50.9531,-4.144,14.04,93,100,7.97,GB,1707835877
325,tromso,69.6496,18.957,-2.99,50,0,10.29,NO,1707835878
326,al hoceima,35.2433,-3.9309,21.57,64,0,3.09,MA,1707835878
327,novaya igirma,57.1334,103.9112,-17.89,91,100,3.57,RU,1707835879
328,katsuura,35.1333,140.3,13.61,73,0,9.65,JP,1707835614
329,saint-pierre,-21.3393,55.4781,27.82,83,75,9.26,RE,1707835880
330,sinan,34.8262,126.1086,14.06,87,63,7.0,KR,1707835880
331,vettavalam,12.1,79.25,23.42,82,39,3.57,IN,1707835881
332,masterton,-40.9597,175.6575,13.27,98,19,1.94,NZ,1707835825
333,oudtshoorn,-33.5907,22.2014,24.2,40,42,7.46,ZA,1707835700
334,atafu village,-8.5421,-172.5159,27.41,84,100,11.79,TK,1707835883
335,aquin,18.2833,-73.4,28.1,67,27,3.62,HT,1707835884
336,cabo san lucas,22.8909,-109.9124,17.51,78,100,1.34,MX,1707835884
337,saldanha,-33.0117,17.9442,26.03,78,33,6.96,ZA,1707835885
338,kodiak,57.79,-152.4072,2.73,93,100,11.83,US,1707835886
339,santa maria do suacui,-18.1903,-42.4142,27.37,64,83,1.45,BR,1707835886
340,narasannapeta,18.4167,84.05,20.99,77,6,0.78,IN,1707835887
341,maizuru,35.45,135.3333,6.91,80,0,2.34,JP,1707835887
342,bengkulu,-3.8004,102.2655,25.23,91,100,1.85,ID,1707835763
343,amahai,-3.3333,128.9167,24.7,85,100,2.44,ID,1707835888
344,el bauga,18.262,33.9081,31.24,7,0,2.76,SD,1707835889
345,posse,-14.0931,-46.3694,29.41,42,7,4.29,BR,1707835890
346,namsos,64.4662,11.4957,-3.97,68,75,8.23,NO,1707835890
347,lautoka,-17.6167,177.4667,26.92,89,40,1.54,FJ,1707835891
348,burela de cabo,43.65,-7.4,17.5,68,26,3.19,ES,1707835892
349,zhigalovo,54.8097,105.1578,-21.42,100,100,1.12,RU,1707835893
350,charlottetown,46.2352,-63.1267,-1.71,71,75,4.12,CA,1707835893
351,alice springs,-23.7,133.8833,27.34,33,75,0.0,AU,1707835878
352,north bend,43.4065,-124.2243,7.26,100,0,3.09,US,1707835895
353,horta,38.5333,-28.6333,14.8,89,75,8.75,PT,1707835895
354,luorong,24.4058,109.6086,17.2,81,100,1.27,CN,1707835896
355,kugesi,56.029,47.2925,-11.19,73,0,3.0,RU,1707835896
356,severnoye,56.3491,78.3619,-13.61,94,100,5.16,RU,1707835897
357,luau,-10.7073,22.2247,27.86,63,71,1.74,AO,1707835897
358,vila franca do campo,37.7167,-25.4333,18.27,99,54,10.92,PT,1707835898
359,port saint john's,-31.6229,29.5448,31.32,56,56,3.51,ZA,1707835898
360,bartica,6.4,-58.6167,26.18,77,70,2.33,GY,1707835899
361,falmouth,50.1544,-5.0711,14.81,72,100,7.72,GB,1707835899
362,mambulo,13.7167,123.05,24.44,89,12,4.77,PH,1707835900
363,fushun,41.8558,123.9233,4.84,89,94,1.31,CN,1707835900
364,castillos,-34.1667,-53.8333,20.1,51,100,6.48,UY,1707835901
365,arraial do cabo,-22.9661,-42.0278,32.98,58,0,6.17,BR,1707835901
366,flin flon,54.7682,-101.865,-9.09,92,75,2.06,CA,1707835902
367,sola,-13.8833,167.55,27.67,77,22,6.0,VU,1707835902
368,linqiong,30.4159,103.4609,12.9,71,100,1.1,CN,1707835903
369,boromo,11.75,-2.9333,40.26,4,99,3.03,BF,1707835903
370,bratsk,56.1325,101.6142,-18.7,95,100,2.05,RU,1707835905
371,fisterra,42.9049,-9.2629,18.75,94,8,9.0,ES,1707835905
372,mostaganem,35.9311,0.0892,18.85,72,25,3.59,DZ,1707835906
373,arteche,12.2645,125.4048,24.94,91,97,6.1,PH,1707835906
374,al bardiyah,31.7561,25.0865,16.42,55,90,7.72,LY,1707835907
375,acapulco de juarez,16.8634,-99.8901,23.9,88,0,2.06,MX,1707835859
376,ndioum,16.5129,-14.6471,38.18,9,6,1.39,SN,1707835907
377,praia da vitoria,38.7333,-27.0667,16.14,88,40,5.95,PT,1707835908
378,narragansett,41.4501,-71.4495,1.22,80,100,7.2,US,1707835909
379,ronneby,56.21,15.276,4.28,87,75,1.54,SE,1707835909
380,enewetak,11.3474,162.3373,26.13,74,26,8.17,MH,1707835910
381,okhotsk,59.3833,143.3,-21.97,99,99,1.57,RU,1707835910
382,aykhal,66.0,111.5,-31.8,100,100,4.5,RU,1707835911
383,kamaishi,39.2667,141.8833,8.25,77,17,5.3,JP,1707835911
384,draganesti-olt,44.1667,24.5333,8.75,82,100,3.87,RO,1707835912
385,hammerfest,70.6634,23.6821,-6.75,73,100,9.26,NO,1707835912
386,glasgow,55.8652,-4.2576,8.79,79,75,7.2,GB,1707835913
387,plettenberg bay,-34.0527,23.3716,23.55,73,94,4.44,ZA,1707835913
388,port moresby,-9.4431,147.1797,25.68,89,40,3.09,PG,1707835914
389,zaraza,9.3503,-65.3245,33.16,38,37,3.85,VE,1707835914
390,ibitinga,-21.7578,-48.8289,35.05,33,96,3.32,BR,1707835915
391,bagepalli,13.7847,77.7931,23.27,43,6,3.91,IN,1707835915
392,aydintepe,40.3894,40.1506,1.34,83,100,1.66,TR,1707835916
393,kavaratti,10.5669,72.642,28.14,65,30,3.39,IN,1707835916
394,rovaniemi,66.5,25.7167,-15.33,85,0,6.17,FI,1707835917
395,dauphin,51.1494,-100.0502,-6.92,93,100,0.0,CA,1707835665
396,kourou,5.1552,-52.6478,30.03,87,38,4.53,GF,1707835918
397,merizo village,13.2658,144.6691,26.31,74,73,9.97,GU,1707835918
398,kolonia town,6.964,158.206,27.56,76,98,9.53,FM,1707835919
399,al jawf,29.5,38.75,21.87,26,59,4.2,SA,1707835919
400,bardai,11.65,7.2333,35.88,4,1,5.03,NG,1707835920
401,ujae,8.9322,165.7642,26.51,79,100,10.3,MH,1707835920
402,mashhad,36.297,59.6062,15.08,38,0,2.06,IR,1707835743
403,karapinar,37.716,33.5506,10.24,57,100,5.24,TR,1707835922
404,susuman,62.7833,148.1667,-40.01,100,80,0.45,RU,1707835925
405,malpica,43.3228,-8.8105,19.09,69,6,6.14,ES,1707835926
406,lakewood,39.7047,-105.0814,2.93,55,5,3.58,US,1707835926
407,lauro de freitas,-12.8944,-38.3272,31.01,70,40,5.14,BR,1707835638
408,colonia,50.9333,6.95,11.59,63,75,2.06,DE,1707835790
409,kargopol',61.5071,38.9456,-24.06,100,39,1.49,RU,1707835928
410,morales,2.757,-76.6172,24.22,60,28,1.14,CO,1707835928
411,yurimaguas,-5.9,-76.0833,25.09,94,100,2.06,PE,1707835929
412,sile,41.1754,29.6133,13.37,59,49,1.34,TR,1707835929
413,swakopmund,-22.6833,14.5333,20.32,76,72,7.44,NA,1707835930
414,zabol,32.25,67.25,7.15,35,5,2.42,AF,1707835930
415,semporna,4.4818,118.6112,24.79,86,100,2.35,MY,1707835931
416,moranbah,-22.0016,148.0466,23.47,88,69,5.36,AU,1707835931
417,le port,-20.9373,55.2919,28.98,81,100,1.33,RE,1707835932
418,thung song,8.1645,99.6804,23.96,86,41,2.39,TH,1707835932
419,natitingou,10.3042,1.3796,38.93,6,66,2.75,BJ,1707835933
420,najaf,31.9985,44.3398,21.14,41,98,5.49,IQ,1707835934
421,carauari,-4.8828,-66.8958,26.25,90,100,1.49,BR,1707835934
422,al burayqah,30.4062,19.5739,16.18,65,7,5.74,LY,1707835934
423,quiindy,-25.9667,-57.2667,26.09,90,100,2.73,PY,1707835935
424,cajati,-24.7361,-48.1228,38.63,29,98,3.04,BR,1707835806
425,taulaga,-11.0553,-171.0883,27.17,87,100,12.47,AS,1707835936
426,castelli,-25.9468,-60.6195,23.92,88,100,5.23,AR,1707835936
427,pangoa,-12.1167,-73.0,25.14,86,100,1.53,PE,1707835937
428,mana,5.6592,-53.7767,28.75,73,71,4.73,GF,1707835938
429,sitangkai,4.6628,119.3928,27.24,80,99,7.74,PH,1707835938
430,brisas de zicatela,15.8369,-97.0419,26.99,60,0,1.98,MX,1707835939
431,perambalur,11.2333,78.8833,24.11,83,22,3.82,IN,1707835939
432,bathsheba,13.2167,-59.5167,28.34,78,20,9.26,BB,1707835940
433,raduzhny,62.0961,77.475,-35.87,100,8,2.29,RU,1707835941
434,wynyard,-41.0,145.7167,12.02,74,59,4.75,AU,1707835941
435,gyongyos,47.7826,19.928,9.83,58,91,2.78,HU,1707835942
436,zavety il'icha,49.0294,140.2494,-8.87,97,100,1.17,RU,1707835943
437,cidreira,-30.1811,-50.2056,22.34,98,100,1.87,BR,1707835943
438,fuling,29.7022,107.3919,15.8,71,79,1.7,CN,1707835944
439,litchfield,41.7668,-73.2501,-0.78,95,100,2.68,US,1707835944
440,quellon,-43.1167,-73.6167,16.31,59,99,4.73,CL,1707835945
441,bantogon,6.5333,124.0333,26.26,77,46,1.53,PH,1707835945
442,ulsteinvik,62.3432,5.8487,6.5,61,94,5.16,NO,1707835946
443,antigonish,45.6169,-61.9986,0.08,84,63,3.28,CA,1707835806
444,moose jaw,50.4001,-105.5344,-6.85,86,40,7.72,CA,1707835947
445,el fasher,13.6279,25.3494,34.81,7,51,1.07,SD,1707835948
446,tazacorte,28.629,-17.9293,22.86,76,0,3.6,ES,1707835948
447,siwa oasis,29.2041,25.5195,19.83,27,8,6.34,EG,1707835949
448,sinabang,2.4803,96.3801,27.68,79,12,0.86,ID,1707835950
449,magadan,59.5667,150.8,-26.0,99,78,2.49,RU,1707835950
450,coyhaique,-45.5752,-72.0662,19.34,51,0,4.12,CL,1707835951
451,labuan,5.2767,115.2417,27.2,83,20,4.63,MY,1707835951
452,swift current,50.2834,-107.8014,-11.55,79,0,5.66,CA,1707835952
453,dickinson,29.4608,-95.0513,12.79,84,0,0.45,US,1707835757
454,mariental,-24.6333,17.9667,38.88,11,12,4.67,NA,1707835953
455,kurumkan,54.3,110.3,-17.84,95,100,0.96,RU,1707835953
456,holualoa,19.6228,-155.9522,18.91,66,0,3.09,US,1707835954
457,kulhudhuffushi,6.6221,73.07,28.01,74,47,5.55,MV,1707835954
458,namibe,-15.1961,12.1522,24.97,83,20,4.22,AO,1707835955
459,saki,8.6667,3.3833,38.95,14,0,1.49,NG,1707835955
460,montevideo,-34.8335,-56.1674,20.01,56,75,7.2,UY,1707835956
461,pisco,-13.7,-76.2167,26.03,78,100,2.57,PE,1707835956
462,manaure,11.7751,-72.4445,30.2,58,35,10.36,CO,1707835957
463,progreso,21.2833,-89.6667,24.42,60,82,6.76,MX,1707835957
464,saiha,22.4833,92.9667,14.49,33,38,1.79,IN,1707835958
465,harstad,68.799,16.5293,-2.14,53,100,13.41,NO,1707835958
466,thinadhoo,0.5333,72.9333,27.76,81,99,8.26,MV,1707835959
467,matoury,4.8483,-52.3317,29.98,74,75,5.66,GF,1707835959
468,lospalos,-8.5186,127.0025,23.29,91,100,4.81,TL,1707835959
469,tofol,5.3248,163.0078,27.56,82,100,7.36,FM,1707835960
470,mount pearl,47.5166,-52.7813,-0.02,84,100,6.69,CA,1707835960
471,la grande,45.3246,-118.0877,-2.09,94,35,0.32,US,1707835961
472,umea,63.8284,20.2597,-11.04,79,0,4.63,SE,1707835952
473,saudarkrokur,65.7461,-19.6394,-1.64,95,100,6.51,IS,1707835962
474,gadzhiyevo,69.2551,33.3362,-18.28,98,36,6.07,RU,1707835962
475,aral,40.5156,81.2636,0.8,61,10,5.02,CN,1707835963
476,fayroz koh,34.5195,65.2509,1.25,48,2,1.41,AF,1707835964
477,mazagao,-0.115,-51.2894,24.03,83,99,2.16,BR,1707835964
478,ad dabbah,18.05,30.95,30.86,5,0,2.42,SD,1707835965
479,jabat,7.75,168.9751,27.09,77,100,6.03,MH,1707835965
480,port shepstone,-30.7414,30.455,25.6,76,7,10.07,ZA,1707835966
481,khovd,48.0056,91.6419,-12.14,43,46,0.35,MN,1707835967
482,paka,4.6374,103.4368,25.96,94,41,1.03,MY,1707835967
483,salym,60.0625,71.4789,-18.32,97,100,4.48,RU,1707835968
484,zhezqazghan,47.7833,67.7667,-6.68,93,75,4.0,KZ,1707835968
485,bonthe,7.5264,-12.505,32.14,56,6,5.81,SL,1707835968
486,yelizovo,53.1873,158.3805,-16.78,59,0,3.13,RU,1707835969
487,cacoal,-11.4386,-61.4472,23.04,98,100,1.32,BR,1707835969
488,masuguru,-11.3667,38.4167,25.77,92,98,1.19,TZ,1707835970
489,pont rouge,48.8833,-72.0825,-9.84,82,33,2.54,CA,1707835970
490,arkhangel'sk,64.5401,40.5433,-24.94,83,0,2.0,RU,1707835971
491,vilhena,-12.7406,-60.1458,26.12,78,100,3.09,BR,1707835971
492,barra do corda,-5.5,-45.25,31.93,52,20,3.19,BR,1707835972
493,tralee,52.2704,-9.7026,11.14,93,100,2.57,IE,1707835972
494,bac lieu,9.285,105.7244,26.04,75,1,5.33,VN,1707835973
495,phalodi,27.1333,72.3667,20.06,12,100,4.73,IN,1707835973
496,ennis,52.8436,-8.9864,8.96,93,100,2.06,IE,1707835974
497,kiunga,-6.1219,141.2906,23.88,100,100,0.84,PG,1707835974
498,sarkand,45.41,79.9186,-7.86,60,1,3.9,KZ,1707835975
499,calatayud,41.3535,-1.6432,18.16,58,100,7.16,ES,1707835975
500,bouca,6.5105,18.2733,40.31,9,47,2.88,CF,1707835975
501,kununurra,-15.7667,128.7333,26.99,94,100,1.03,AU,1707835711
502,camocim,-2.9022,-40.8411,27.7,79,100,6.72,BR,1707835976
503,blagoveshchensk,50.2667,127.5333,-9.66,67,40,3.0,RU,1707835977
504,mili,6.0815,171.735,27.71,67,99,7.4,MH,1707835977
505,soio,-6.1349,12.3689,28.72,83,100,4.39,AO,1707835978
506,pokhvistnevo,53.6524,52.1274,-5.32,93,100,4.19,RU,1707835978
507,pamandzi,-12.7967,45.2794,29.88,79,20,4.12,YT,1707835979
508,nasir,15.5894,32.5634,32.64,8,4,3.82,SD,1707835979
509,aleksandrovsk-sakhalinskiy,50.8975,142.1561,-9.69,95,100,7.25,RU,1707835980
510,kapuskasing,49.4169,-82.4331,-17.95,85,75,3.6,CA,1707835980
511,nabire,-3.3667,135.4833,24.51,93,88,1.16,ID,1707835981
512,kill devil hills,36.0307,-75.676,12.21,87,75,9.26,US,1707835981
513,abbeville,50.1,1.8333,11.25,77,100,5.8,FR,1707835982
514,tobruk,32.0836,23.9764,15.4,66,72,6.93,LY,1707835982
515,kostanay,53.1667,63.5833,-3.84,100,75,9.0,KZ,1707835983
516,puerto aysen,-45.4,-72.7,22.49,43,100,1.19,CL,1707835983
517,xining,36.6167,101.7667,-0.31,40,100,1.7,CN,1707835984
518,kirov,58.5966,49.6601,-16.34,92,100,3.41,RU,1707835903
519,pyetrykaw,52.1289,28.4921,6.55,96,100,1.89,BY,1707835984
520,east end,34.5507,-92.341,6.47,81,0,1.67,US,1707835985
521,berezovyy,51.6667,135.7,-15.02,98,100,1.44,RU,1707835985
522,maych'ew,12.7875,39.5422,18.59,56,9,3.61,ET,1707835986
523,tabora,-5.0167,32.8,28.88,54,20,0.0,TZ,1707835986
524,zeya,53.75,127.2667,-21.79,90,68,2.64,RU,1707835987
525,trzebiatow,54.0615,15.2648,6.14,79,41,5.42,PL,1707835987
526,sangmelima,2.9333,11.9833,37.57,18,49,1.34,CM,1707835988
527,veinticinco de mayo,-35.4323,-60.1727,19.72,39,35,4.22,AR,1707835988
528,nuuk,64.1835,-51.7216,-11.66,67,20,7.72,GL,1707835989
529,victoria point,-27.5833,153.3,23.99,84,51,1.56,AU,1707835989
530,beni,0.5,29.4667,23.45,66,100,1.41,CD,1707835990
531,cooma,-36.2333,149.1333,18.24,74,93,6.62,AU,1707835990
532,mwinilunga,-11.7358,24.4293,26.84,51,87,2.09,ZM,1707835991
533,tanda,26.55,82.65,19.8,43,99,1.68,IN,1707835991
534,canitas de felipe pescador,23.6,-102.7167,11.91,46,100,4.86,MX,1707835992
535,banlung,13.7468,107.0045,22.86,64,5,3.0,KH,1707835993
536,myeik,12.4333,98.6,24.97,73,35,2.01,MM,1707835994
537,es castell,39.8795,4.2854,16.38,67,20,2.57,ES,1707835994
538,balaipungut,1.05,101.2833,23.99,98,100,1.06,ID,1707835995
539,maryborough,-25.5333,152.7,24.5,97,43,1.16,AU,1707835995
540,mpika,-11.8343,31.4529,20.88,90,95,2.48,ZM,1707835996
541,papao,-17.75,-149.55,26.82,89,100,9.54,PF,1707835996
542,igrim,63.1906,64.4162,-29.51,96,100,4.44,RU,1707835997
543,somerset east,-32.7217,25.588,29.65,31,46,7.73,ZA,1707835997
544,el nido,11.1858,119.3956,27.26,79,84,10.33,PH,1707835998
545,alesund,62.4723,6.1549,6.51,60,75,4.63,NO,1707835999
546,el granada,37.5027,-122.4694,11.03,92,100,1.54,US,1707836000
547,akureyri,65.6835,-18.0878,-1.04,93,75,9.26,IS,1707836000
548,chinchilla,-26.75,150.6333,22.23,87,55,0.45,AU,1707836001
549,ulanhot,46.0833,122.0833,-4.98,47,100,5.52,CN,1707836001
550,sao joao da barra,-21.6403,-41.0511,33.05,73,96,6.2,BR,1707836002
551,byron bay,-28.65,153.6167,20.39,92,42,1.2,AU,1707836002
552,claremont,34.0967,-117.7198,10.33,69,0,0.0,US,1707836003
553,lerwick,60.1545,-1.1494,7.0,90,63,13.31,GB,1707836003
554,cameron park colonia,25.9715,-97.4783,17.19,79,0,1.54,US,1707836004
555,viqueque,-8.8673,126.3658,25.97,87,99,2.47,TL,1707836004
556,palmas,-10.2128,-48.3603,29.93,58,75,4.63,BR,1707836005
557,butte,39.6499,-121.5677,9.44,84,0,0.0,US,1707835999
558,ribeira brava,32.65,-17.0667,23.4,63,100,1.18,PT,1707836006
559,santa quiteria,-4.3319,-40.1567,34.91,36,95,3.46,BR,1707836006
560,greenville,35.6127,-77.3663,14.01,64,75,7.72,US,1707835740
561,antofagasta,-23.65,-70.4,23.6,72,76,3.18,CL,1707836007
562,tulun,54.5611,100.5792,-16.38,98,100,2.11,RU,1707836007
563,mawu,29.5923,107.3139,13.92,74,92,1.72,CN,1707836008
564,watsa,3.0372,29.5355,25.73,57,91,1.77,CD,1707836008
565,lake monticello,37.9232,-78.3347,7.62,85,91,1.79,US,1707836009
566,monroeville,40.4212,-79.7881,2.8,69,0,5.14,US,1707836009
567,souillac,-20.5167,57.5167,29.21,84,40,4.63,MU,1707836010
568,awjilah,29.1081,21.2869,16.49,54,82,3.97,LY,1707836010
569,acarau,-2.8856,-40.12,30.66,62,100,6.92,BR,1707836011
570,padang,-0.9492,100.3543,30.03,84,69,2.6,ID,1707836011
571,midvagur,62.0511,-7.1939,5.46,81,20,5.66,FO,1707836012
572,thunder bay,48.4001,-89.3168,-14.01,85,75,1.03,CA,1707835818
573,ljusdal,61.8288,16.0913,-5.2,95,100,3.45,SE,1707836013
574,tortoli,39.9256,9.6572,15.9,55,0,5.66,IT,1707836013
575,barra de santo antonio,-9.4047,-35.5072,31.6,57,85,4.69,BR,1707836014
576,kodinsk,58.6881,99.1844,-18.94,98,100,1.46,RU,1707836014
577,kiffa,16.6166,-11.4045,38.55,4,0,3.22,MR,1707836015
578,ust-tsilma,65.441,52.1498,-32.44,100,15,1.79,RU,1707836015
